City_ID,City_Weather,City,Country,Lat,Lng,Max Temp,Humidity,Cloudiness,Wind Speed,Weather Description
0,0,Hasaki,JP,35.7333,140.8333,74.21,57,99,22.75,overcast clouds
1,1,Provideniya,RU,64.3833,-173.3,32.36,69,20,11.18,few clouds
2,2,Eureka,US,40.8021,-124.1637,66.18,64,17,3.0,few clouds
3,3,Plettenberg Bay,ZA,-34.0527,23.3716,70.5,56,100,4.68,overcast clouds
4,4,Karratha,AU,-20.7377,116.8463,77.61,23,57,9.08,broken clouds
5,5,Atuona,PF,-9.8,-139.0333,76.75,70,11,14.65,few clouds
6,6,Georgetown,MY,5.4112,100.3354,80.53,87,20,3.44,thunderstorm
7,7,Ancud,CL,-41.8697,-73.8203,46.78,77,13,6.69,few clouds
8,8,Arraial Do Cabo,BR,-22.9661,-42.0278,73.26,88,20,4.61,few clouds
9,9,Pichayevo,RU,53.2363,42.2032,49.87,88,100,12.77,overcast clouds
10,10,College,US,64.8569,-147.8028,34.59,79,75,3.44,broken clouds
11,11,Hameenlinna,FI,60.996,24.4643,48.15,84,58,10.83,broken clouds
12,12,Okhotsk,RU,59.3833,143.3,33.26,51,100,6.96,overcast clouds
13,13,Punta Arenas,CL,-53.15,-70.9167,48.31,57,75,18.41,broken clouds
14,14,Galle,LK,6.0367,80.217,77.52,86,97,5.61,overcast clouds
15,15,Severo-Kurilsk,RU,50.6789,156.125,47.16,84,100,15.1,overcast clouds
16,16,Mar Del Plata,AR,-38.0023,-57.5575,54.09,77,0,18.01,clear sky
17,17,Raduzhnyy,RU,62.0961,77.475,40.89,87,89,10.74,overcast clouds
18,18,Chokurdakh,RU,70.6333,147.9167,19.08,80,100,17.11,overcast clouds
19,19,Starobesheve,UA,47.7504,38.0305,49.37,89,95,17.58,overcast clouds
20,20,Nikolskoye,RU,59.7035,30.7861,46.29,86,43,6.26,scattered clouds
21,21,Chuy,UY,-33.6971,-53.4616,49.15,71,13,6.76,few clouds
22,22,Victoria,HK,22.2855,114.1577,72.32,48,7,15.01,clear sky
23,23,East London,ZA,-33.0153,27.9116,67.82,87,100,13.98,overcast clouds
24,24,Yellowknife,CA,62.456,-114.3525,55.92,58,20,19.57,few clouds
25,25,Half Moon Bay,US,37.4636,-122.4286,86.88,69,0,10.36,clear sky
26,26,Tinaogan,PH,9.7791,123.1503,81.05,78,90,2.89,overcast clouds
27,27,Vila Velha,BR,-20.3297,-40.2925,78.75,83,100,8.05,overcast clouds
28,28,Hinton,CA,53.4001,-117.5857,56.26,51,91,15.9,overcast clouds
29,29,Hermanus,ZA,-34.4187,19.2345,67.8,48,100,7.45,overcast clouds
30,30,Hay River,CA,60.8156,-115.7999,55.38,35,100,11.5,smoke
31,31,Airai,TL,-8.9266,125.4092,65.79,71,100,1.7,overcast clouds
32,32,Tondano,ID,1.3038,124.9112,69.89,85,99,1.5,overcast clouds
33,33,Ahipara,NZ,-35.1667,173.1667,64.54,60,54,3.04,broken clouds
34,34,Labuhan,ID,-6.8844,112.2051,78.62,85,99,8.34,light rain
35,35,Rikitea,PF,-23.1203,-134.9692,72.3,72,21,7.18,few clouds
36,36,Buri,BR,-23.7975,-48.5928,59.52,97,100,7.47,moderate rain
37,37,Hilo,US,19.7297,-155.09,87.53,75,40,13.8,scattered clouds
38,38,Leh,IN,34.1667,77.5833,41.97,53,87,4.92,overcast clouds
39,39,Sawtell,AU,-30.3833,153.1,61.18,88,75,9.22,broken clouds
40,40,Ribeira Grande,PT,38.5167,-28.7,70.77,86,19,1.01,few clouds
41,41,Puerto Madryn,AR,-42.7692,-65.0385,62.55,31,5,18.95,clear sky
42,42,Viareggio,IT,43.8735,10.2558,65.1,83,93,3.27,overcast clouds
43,43,Mancheral,IN,18.8667,79.4333,73.74,97,94,3.42,overcast clouds
44,44,Tomatlan,MX,19.9333,-105.25,88.09,62,61,3.0,broken clouds
45,45,Vanse,NO,58.1167,6.7,50.77,100,39,24.29,scattered clouds
46,46,Souillac,MU,-20.5167,57.5167,71.98,83,40,8.05,scattered clouds
47,47,Cape Town,ZA,-33.9258,18.4232,74.12,60,0,10.36,clear sky
48,48,Mogocha,RU,53.7333,119.7667,29.71,76,10,2.19,clear sky
49,49,Leningradskiy,RU,69.3833,178.4167,21.99,70,98,20.42,overcast clouds
50,50,Soc Trang,VN,9.6033,105.98,76.01,89,100,2.62,moderate rain
51,51,Coihaique,CL,-45.5752,-72.0662,51.75,58,75,6.91,broken clouds
52,52,Kapaa,US,22.0752,-159.319,85.19,61,85,5.99,overcast clouds
53,53,Jamestown,US,42.097,-79.2353,56.84,37,0,6.91,clear sky
54,54,Esperance,AU,-33.8667,121.9,55.99,68,99,19.3,overcast clouds
55,55,Touros,BR,-5.1989,-35.4608,77.9,79,12,17.22,few clouds
56,56,Roebourne,AU,-20.7833,117.1333,75.92,26,57,9.17,broken clouds
57,57,Portales,US,34.1862,-103.3344,70.34,52,100,13.51,overcast clouds
58,58,Pangnirtung,CA,66.1451,-65.7125,28.4,69,75,2.3,broken clouds
59,59,Xuddur,SO,4.1213,43.8894,70.56,77,44,12.19,scattered clouds
60,60,Den Helder,NL,52.9599,4.7593,57.18,65,20,8.99,few clouds
61,61,Fuyang,CN,32.9,115.8167,48.56,52,10,4.34,clear sky
62,62,Longyearbyen,SJ,78.2186,15.6401,33.64,75,40,12.66,scattered clouds
63,63,Deputatskiy,RU,69.3,139.9,3.9,94,57,6.73,broken clouds
64,64,Albany,US,42.6001,-73.9662,54.64,87,52,3.89,broken clouds
65,65,Ushuaia,AR,-54.8,-68.3,49.62,65,75,19.57,broken clouds
66,66,Nouadhibou,MR,20.931,-17.0347,75.18,73,18,12.66,few clouds
67,67,Kaitangata,NZ,-46.2817,169.8464,49.68,70,99,10.78,overcast clouds
68,68,Hithadhoo,MV,-0.6,73.0833,80.71,79,98,17.76,moderate rain
69,69,Puerto Ayora,EC,-0.7393,-90.3518,75.16,90,76,5.01,broken clouds
70,70,Mwingi,KE,-0.9344,38.0601,64.44,80,20,7.14,few clouds
71,71,Vaini,TO,-21.2,-175.2,77.16,73,40,26.46,scattered clouds
72,72,Torbay,CA,47.6666,-52.7314,47.26,73,20,11.5,few clouds
73,73,Toktogul,KG,41.8708,72.9402,52.9,15,0,2.37,clear sky
74,74,Flin Flon,CA,54.7682,-101.865,71.44,35,40,10.36,smoke
75,75,Guanica,PR,17.9716,-66.908,84.51,82,49,10.63,scattered clouds
76,76,Rio Cuarto,AR,-33.1307,-64.3499,65.97,18,21,20.71,few clouds
77,77,Bairnsdale,AU,-37.8333,147.6167,57.63,50,97,1.97,overcast clouds
78,78,Port Elizabeth,ZA,-33.918,25.5701,68.09,91,0,13.8,clear sky
79,79,Salalah,OM,17.0151,54.0924,75.29,57,0,3.44,clear sky
80,80,Nemuro,JP,43.3236,145.575,56.3,93,100,15.99,light rain
81,81,Qaanaaq,GL,77.484,-69.3632,8.1,54,24,7.47,few clouds
82,82,Shimoda,JP,34.6667,138.95,65.1,54,100,23.13,overcast clouds
83,83,Ugoofaaru,MV,5.6667,73.0,81.37,79,96,19.82,overcast clouds
84,84,Palmer,US,42.1584,-72.3287,60.17,77,40,3.44,scattered clouds
85,85,Avarua,CK,-21.2078,-159.775,77.05,69,75,27.63,broken clouds
86,86,Pemba,MZ,-12.974,40.5178,75.9,83,20,4.61,few clouds
87,87,Dukstas,LT,55.5333,26.3333,40.66,89,63,7.16,broken clouds
88,88,Yumen,CN,40.2833,97.2,41.76,18,38,3.22,scattered clouds
89,89,New Norfolk,AU,-42.7826,147.0587,54.72,69,48,2.91,scattered clouds
90,90,Coleraine,GB,55.1333,-6.6667,47.35,85,83,8.81,broken clouds
91,91,Bozeman,US,45.6796,-111.0386,74.62,34,0,5.75,clear sky
92,92,Yeppoon,AU,-23.1333,150.7333,69.58,76,97,18.68,overcast clouds
93,93,Barcelos,PT,41.5388,-8.6151,63.91,93,24,3.89,few clouds
94,94,Astana,KZ,51.1801,71.446,30.15,93,0,4.47,clear sky
95,95,Apatou,GF,5.155,-54.3472,74.7,96,89,2.73,light rain
96,96,Kudahuvadhoo,MV,2.6708,72.8944,81.1,79,60,20.4,broken clouds
97,97,Petropavlovsk-Kamchatskiy,RU,53.0452,158.6483,34.39,75,75,4.47,broken clouds
98,98,Dikson,RU,73.5069,80.5464,34.32,99,100,8.46,overcast clouds
99,99,Muros,ES,42.7762,-9.0603,59.85,95,89,5.57,overcast clouds
100,100,Chara,RU,56.9064,118.2631,28.33,77,67,1.9,broken clouds
101,101,Alexandria,EG,31.2156,29.9553,73.08,68,0,7.67,clear sky
102,102,San Cristobal,VE,7.7669,-72.225,77.18,87,100,3.4,overcast clouds
103,103,Ajdabiya,LY,30.7554,20.2263,69.04,61,41,6.71,scattered clouds
104,104,Flinders,AU,-34.5833,150.8552,60.19,82,96,5.99,overcast clouds
105,105,Tuktoyaktuk,CA,69.4541,-133.0374,30.2,86,100,19.57,overcast clouds
106,106,Castro,BR,-24.7911,-50.0119,57.25,97,100,8.48,overcast clouds
107,107,Golynki,RU,54.8696,31.3861,39.13,85,11,1.95,few clouds
108,108,Sorland,NO,67.667,12.6934,48.06,78,71,35.84,light rain
109,109,Cabo San Lucas,MX,22.8909,-109.9124,93.61,55,0,11.5,clear sky
110,110,North Myrtle Beach,US,33.816,-78.68,72.1,70,20,13.8,few clouds
111,111,Saint Anthony,US,45.0205,-93.218,71.85,33,0,12.66,clear sky
112,112,Upernavik,GL,72.7868,-56.1549,16.92,68,93,4.09,overcast clouds
113,113,Geraldton,AU,-28.7667,114.6,46.81,87,97,5.75,overcast clouds
114,114,Mataura,NZ,-46.1927,168.8643,48.16,79,99,7.36,overcast clouds
115,115,Hokitika,NZ,-42.7167,170.9667,56.41,72,81,2.73,broken clouds
116,116,Takoradi,GH,4.8845,-1.7554,76.6,87,71,7.81,broken clouds
117,117,Belyy Yar,RU,53.6039,91.3903,42.69,86,0,4.47,clear sky
118,118,Barrow,US,71.2906,-156.7887,26.62,93,100,16.11,overcast clouds
119,119,Solnechnyy,RU,50.7214,136.6319,33.39,90,100,9.93,snow
120,120,Hualmay,PE,-11.0964,-77.6139,65.52,76,44,11.97,scattered clouds
121,121,Ocampo,MX,21.65,-101.5,64.63,52,70,16.33,broken clouds
122,122,Huilong,CN,31.8111,121.655,52.93,64,100,8.81,overcast clouds
123,123,Thompson,CA,55.7435,-97.8558,69.96,37,20,12.66,few clouds
124,124,Mahebourg,MU,-20.4081,57.7,71.89,83,40,8.05,scattered clouds
125,125,Bluff,NZ,-46.6,168.3333,49.06,62,71,18.19,broken clouds
126,126,Predivinsk,RU,57.0669,93.4378,43.52,85,100,11.14,overcast clouds
127,127,Pevek,RU,69.7008,170.3133,25.77,78,100,26.53,overcast clouds
128,128,Bengkulu,ID,-3.8004,102.2655,75.74,86,100,3.29,overcast clouds
129,129,Talnakh,RU,69.4865,88.3972,36.21,99,100,6.69,light rain
130,130,Bredasdorp,ZA,-34.5322,20.0403,65.79,58,98,4.43,overcast clouds
131,131,Yulara,AU,-25.2406,130.9889,76.14,19,75,10.85,broken clouds
132,132,Inuvik,CA,68.3499,-133.7218,31.21,89,100,11.5,overcast clouds
133,133,Banjar,ID,-8.19,114.9675,77.11,86,100,4.34,overcast clouds
134,134,Port Alfred,ZA,-33.5906,26.891,66.18,90,100,3.0,overcast clouds
135,135,Datong,CN,40.0936,113.2914,38.46,31,0,1.83,clear sky
136,136,Khatanga,RU,71.9667,102.5,6.6,96,81,3.27,broken clouds
137,137,Cherskiy,RU,68.75,161.3,17.92,95,98,14.14,overcast clouds
138,138,Lebu,CL,-37.6167,-73.65,48.94,79,1,18.03,clear sky
139,139,Taltal,CL,-25.4,-70.4833,58.93,73,18,6.15,few clouds
140,140,Vao,NC,-22.6667,167.4833,72.36,66,100,18.77,overcast clouds
141,141,Qui Nhon,VN,13.7667,109.2333,78.12,88,100,16.44,overcast clouds
142,142,Saint-Philippe,RE,-21.3585,55.7679,69.39,82,28,9.69,scattered clouds
143,143,Manaus,BR,-3.1019,-60.025,81.1,83,75,11.5,very heavy rain
144,144,Hobart,AU,-42.8794,147.3294,55.06,83,75,10.36,broken clouds
145,145,Pokosnoye,RU,55.5258,101.0536,36.59,92,100,9.15,overcast clouds
146,146,Busselton,AU,-33.65,115.3333,53.29,70,99,9.66,overcast clouds
147,147,Sinnamary,GF,5.3833,-52.95,78.91,91,25,9.69,scattered clouds
148,148,Iskateley,RU,67.6803,53.1512,41.56,86,99,19.48,overcast clouds
149,149,Paldiski,EE,59.3567,24.0531,50.92,87,0,8.05,clear sky
150,150,Turukhansk,RU,65.8167,87.9833,36.36,97,100,15.1,light rain
151,151,Perth,AU,-31.9333,115.8333,51.67,90,0,5.75,clear sky
152,152,Te Anau,NZ,-45.4167,167.7167,52.77,66,83,4.18,broken clouds
153,153,Abis,PH,9.7173,122.9438,78.13,87,70,2.28,broken clouds
154,154,Kaeo,NZ,-35.1,173.7833,66.33,72,89,5.61,overcast clouds
155,155,Huaicheng,CN,23.9051,112.1931,56.46,39,7,2.26,clear sky
156,156,Kajaani,FI,64.2273,27.7285,48.25,76,100,8.05,overcast clouds
157,157,Lavrentiya,RU,65.5833,-171.0,28.09,52,1,7.16,clear sky
158,158,Havre-Saint-Pierre,CA,50.2334,-63.5986,42.8,87,75,11.5,broken clouds
159,159,Belmonte,BR,-15.8631,-38.8828,75.94,80,5,10.0,clear sky
160,160,Havelock,US,34.8791,-76.9013,71.55,64,0,5.75,clear sky
161,161,Hofn,IS,64.2539,-15.2082,34.27,58,60,7.83,broken clouds
162,162,Pacific Grove,US,36.6177,-121.9166,75.38,92,40,8.05,haze
163,163,Djenne,ML,13.9061,-4.5533,86.81,41,41,7.38,scattered clouds
164,164,Faanui,PF,-16.4833,-151.75,78.08,75,28,16.58,scattered clouds
165,165,Los Llanos De Aridane,ES,28.6585,-17.9182,65.95,82,20,6.91,few clouds
166,166,Puerto Escondido,MX,15.85,-97.0667,86.83,54,75,3.44,broken clouds
167,167,Madera,US,37.1666,-119.8343,94.87,20,0,8.01,clear sky
168,168,Yaguara,CO,2.6636,-75.5175,79.03,61,71,3.27,broken clouds
169,169,Hurricane,US,37.1753,-113.2899,86.34,26,9,3.33,clear sky
170,170,Saskylakh,RU,71.9167,114.0833,9.77,95,37,9.01,scattered clouds
171,171,Tasiilaq,GL,65.6145,-37.6368,33.96,98,100,19.53,snow
172,172,Tilichiki,RU,60.4667,166.1,35.8,68,98,15.3,overcast clouds
173,173,Portland,US,45.5234,-122.6762,80.96,53,75,10.36,smoke
174,174,Butaritari,KI,3.0707,172.7902,82.06,75,82,13.51,broken clouds
175,175,Meulaboh,ID,4.1363,96.1285,75.06,88,99,2.91,overcast clouds
176,176,Saldanha,ZA,-33.0117,17.9442,60.85,89,100,16.58,overcast clouds
177,177,Khromtau,KZ,50.2503,58.4347,45.91,45,49,7.54,scattered clouds
178,178,Montepuez,MZ,-13.1256,38.9997,64.8,85,0,4.88,clear sky
179,179,Tiksi,RU,71.6872,128.8694,11.62,88,99,13.94,overcast clouds
180,180,Saint-Augustin,CA,51.226,-58.6502,41.47,53,98,11.39,overcast clouds
181,181,Xining,CN,36.6167,101.7667,39.69,45,72,3.06,broken clouds
182,182,Brae,GB,60.3964,-1.353,46.42,66,100,25.86,overcast clouds
183,183,Sioux Lookout,CA,50.1001,-91.917,57.27,51,75,11.5,broken clouds
184,184,Djambala,CG,-2.5447,14.7533,67.75,89,58,0.92,broken clouds
185,185,Krasnoyarskiy,RU,51.965,59.8967,46.13,52,54,7.9,broken clouds
186,186,Plouzane,FR,48.3833,-4.6167,50.05,87,0,8.05,clear sky
187,187,Soma,TR,39.1855,27.6094,56.28,90,13,6.8,few clouds
188,188,Klaksvik,FO,62.2266,-6.589,41.92,68,99,24.34,overcast clouds
189,189,Kahului,US,20.8947,-156.47,87.82,72,40,10.36,scattered clouds
190,190,Pangody,RU,65.85,74.4859,38.48,90,100,13.62,overcast clouds
191,191,Jumla,NP,29.2747,82.1838,49.19,87,8,5.41,clear sky
192,192,Skelleftea,SE,64.7507,20.9528,46.76,100,100,9.22,overcast clouds
193,193,Grevesmuhlen,DE,53.8667,11.1833,50.79,91,38,10.65,scattered clouds
194,194,Carnarvon,AU,-24.8667,113.6333,63.37,61,90,20.56,overcast clouds
195,195,Ilulissat,GL,69.2167,-51.1,26.62,80,75,4.61,broken clouds
196,196,Broome,US,42.2506,-75.833,57.58,65,20,5.75,few clouds
197,197,Haines Junction,CA,60.7522,-137.5108,46.35,57,100,4.61,overcast clouds
198,198,Lucapa,AO,-8.4192,20.7447,67.19,52,8,1.74,clear sky
199,199,Belaya Gora,RU,68.5333,146.4167,18.0,84,57,9.04,broken clouds
200,200,Pithiviers,FR,48.1667,2.25,60.84,79,100,11.18,overcast clouds
201,201,Luwuk,ID,-0.9516,122.7875,77.52,85,100,2.84,overcast clouds
202,202,Narsaq,GL,60.9167,-46.05,35.82,98,100,6.87,light rain
203,203,Grand Gaube,MU,-20.0064,57.6608,72.0,75,28,3.0,scattered clouds
204,204,Mehamn,NO,71.0357,27.8492,40.95,81,20,6.91,few clouds
205,205,Husavik,IS,66.0449,-17.3389,21.02,90,90,14.99,overcast clouds
206,206,Dunedin,NZ,-45.8742,170.5036,48.79,86,99,15.01,overcast clouds
207,207,Saint-Pierre,RE,-21.3393,55.4781,69.48,73,75,5.75,broken clouds
208,208,Kununurra,AU,-15.7667,128.7333,78.78,73,9,3.44,clear sky
209,209,Bolitoc,PH,15.7395,119.8769,79.36,83,84,4.45,broken clouds
210,210,Pallasovka,RU,50.05,46.8833,55.38,59,84,7.52,broken clouds
211,211,Rio Gallegos,AR,-51.6226,-69.2181,57.25,26,20,20.71,few clouds
212,212,Collie,AU,-33.3667,116.15,48.16,80,98,3.94,overcast clouds
213,213,Wahiawa,US,21.5028,-158.0236,83.79,63,100,0.0,overcast clouds
214,214,Norman Wells,CA,65.282,-126.8329,32.04,100,100,32.21,light snow
215,215,La Ronge,CA,55.1001,-105.2842,71.85,26,75,6.91,broken clouds
216,216,Suluq,LY,31.6682,20.2521,68.68,60,25,5.48,scattered clouds
217,217,Sao Filipe,CV,14.8961,-24.4956,78.73,77,56,8.32,broken clouds
218,218,Sao Joao Da Barra,BR,-21.6403,-41.0511,77.09,87,24,7.85,few clouds
219,219,Buala,SB,-8.145,159.5921,85.48,59,8,2.86,clear sky
220,220,Riyadh,SA,24.6877,46.7219,71.74,16,3,3.91,clear sky
221,221,Hami,CN,42.8,93.45,52.09,30,43,15.55,scattered clouds
222,222,Urzicuta,RO,44.0167,23.55,58.71,52,100,8.75,light rain
223,223,Watrous,CA,51.6668,-105.4679,74.98,25,1,17.27,clear sky
224,224,Clyde River,CA,70.4692,-68.5914,14.23,85,0,13.8,clear sky
225,225,Constitucion,CL,-35.3333,-72.4167,52.23,79,0,10.94,clear sky
226,226,Tall Kayf,TR,37.0833,41.0667,68.63,31,0,4.34,clear sky
227,227,Santa Cruz Verapaz,GT,15.3667,-90.4333,66.96,88,75,0.0,broken clouds
228,228,Mattru,SL,7.6244,-11.8332,73.9,98,41,2.19,scattered clouds
229,229,Novyy Urengoy,RU,66.0833,76.6333,39.34,90,100,14.76,overcast clouds
230,230,Sakakah,SA,29.9697,40.2064,78.37,33,0,7.87,clear sky
231,231,Orlovskiy,RU,46.8714,42.0592,52.72,75,1,16.6,clear sky
232,232,Russell,US,32.3502,-85.1999,78.4,31,0,3.44,clear sky
233,233,Mascote,BR,-15.5631,-39.3025,69.96,92,5,1.68,clear sky
234,234,Katsuura,JP,35.1333,140.3,71.87,57,97,25.34,overcast clouds
235,235,Kodiak,US,57.79,-152.4072,56.71,54,20,13.8,few clouds
236,236,Komsomolskiy,UZ,40.4272,71.7189,50.72,53,0,4.61,clear sky
237,237,Port Blair,IN,11.6667,92.75,77.18,86,100,2.06,overcast clouds
238,238,Dingle,PH,10.9995,122.6711,77.83,88,44,2.66,scattered clouds
239,239,Naze,JP,28.3667,129.4833,68.92,57,100,15.48,overcast clouds
240,240,Taungdwingyi,MM,20.0167,95.55,72.9,95,58,4.99,broken clouds
241,241,Zhigansk,RU,66.7697,123.3711,11.64,95,60,5.5,broken clouds
242,242,Ampanihy,MG,-24.7,44.75,64.53,96,12,5.59,few clouds
243,243,Lagoa,PT,39.05,-27.9833,69.75,87,81,6.02,broken clouds
244,244,Bathsheba,BB,13.2167,-59.5167,83.01,83,40,17.27,scattered clouds
245,245,Saint George,US,37.1041,-113.5841,86.95,20,0,11.99,clear sky
246,246,Manado,ID,1.487,124.8455,77.77,94,20,3.44,few clouds
247,247,Snezhnogorsk,RU,69.1933,33.2531,38.98,91,69,7.23,broken clouds
248,248,Ndele,CF,8.4109,20.6473,69.67,95,95,2.44,light rain
249,249,Huarmey,PE,-10.0681,-78.1522,64.54,80,30,8.59,scattered clouds
250,250,South Milwaukee,US,42.9106,-87.8606,61.72,78,20,4.61,few clouds
251,251,Kavaratti,IN,10.5669,72.642,80.89,76,80,9.48,broken clouds
252,252,Roros,NO,62.5747,11.3842,31.84,86,73,3.44,broken clouds
253,253,Egvekinot,RU,66.3167,-179.1667,17.08,65,36,5.21,scattered clouds
254,254,Tselinnoye,RU,53.0833,85.6667,39.51,89,72,11.97,broken clouds
255,255,Togitsu,JP,32.8333,129.85,62.58,67,75,13.8,broken clouds
256,256,Mendoza,AR,-32.8908,-68.8272,71.13,13,0,2.3,clear sky
257,257,Chulman,RU,56.8479,124.9104,20.26,99,94,1.97,overcast clouds
258,258,Namatanai,PG,-3.6667,152.4333,84.02,56,7,3.58,clear sky
259,259,Port Hardy,CA,50.6996,-127.4199,57.38,62,40,18.41,scattered clouds
260,260,Mangrol,IN,21.1167,70.1167,81.19,79,82,6.38,broken clouds
261,261,Redcliffe,AU,-27.2307,153.0973,72.14,60,20,8.05,few clouds
262,262,Harrisonburg,US,38.4496,-78.8689,61.03,53,1,2.17,clear sky
263,263,Bambanglipuro,ID,-7.95,110.2833,76.98,89,100,4.29,overcast clouds
264,264,Bethel,US,41.3712,-73.414,62.91,71,20,3.44,few clouds
265,265,Kiruna,SE,67.8557,20.2251,41.92,81,100,11.5,overcast clouds
266,266,Phan Thiet,VN,10.9333,108.1,75.97,89,99,5.41,overcast clouds
267,267,Canutama,BR,-6.5339,-64.3831,78.31,75,64,1.86,broken clouds
268,268,Bukama,CD,-9.2,25.85,74.41,26,28,1.74,scattered clouds
269,269,Ambilobe,MG,-13.2,49.05,65.37,80,0,4.21,clear sky
270,270,Oranjemund,,-28.55,16.4333,60.57,85,93,4.83,overcast clouds
271,271,Cidreira,BR,-30.1811,-50.2056,57.6,93,100,15.5,moderate rain
272,272,Gamba,GA,-2.65,10.0,76.17,89,94,4.99,light rain
273,273,Asosa,ET,10.0667,34.5333,60.24,89,100,2.3,overcast clouds
274,274,Vestmannaeyjar,IS,63.4427,-20.2734,41.38,67,96,12.55,overcast clouds
275,275,Saint-Francois,FR,46.4154,3.9054,57.67,94,100,3.44,overcast clouds
276,276,Tabou,CI,4.423,-7.3528,76.89,90,82,6.11,broken clouds
277,277,Baghdad,IQ,33.3406,44.4009,69.71,43,0,8.05,clear sky
278,278,Diamantino,BR,-14.4086,-56.4461,76.64,70,92,3.83,overcast clouds
279,279,Gigmoto,PH,13.7796,124.39,81.28,84,100,7.78,overcast clouds
280,280,Fortuna,US,40.5982,-124.1573,65.91,76,0,9.22,clear sky
281,281,Talara,PE,-4.5772,-81.2719,66.96,72,0,12.66,clear sky
282,282,Batemans Bay,AU,-35.7167,150.1833,54.1,58,36,5.01,scattered clouds
283,283,Nizwa,OM,22.9333,57.5333,74.46,24,13,2.84,few clouds
284,284,Broken Hill,AU,-31.95,141.4333,64.76,30,100,12.82,overcast clouds
285,285,Aripuana,BR,-9.1667,-60.6333,79.52,66,83,0.69,broken clouds
286,286,Surt,LY,31.2089,16.5887,73.45,62,46,13.4,scattered clouds
287,287,Isangel,VU,-19.55,169.2667,80.71,78,75,5.75,light rain
288,288,Pokoynoye,RU,44.8097,44.2517,60.15,64,100,13.51,overcast clouds
289,289,Nelidovo,RU,56.2211,32.7774,38.25,90,16,2.19,few clouds
290,290,Alta Floresta,BR,-9.8756,-56.0861,69.6,98,99,3.69,heavy intensity rain
291,291,Krasnomayskiy,RU,57.6194,34.4099,38.53,89,95,3.42,overcast clouds
292,292,Fairbanks,US,64.8378,-147.7164,34.61,79,75,3.44,broken clouds
293,293,Totness,SR,5.8833,-56.3167,78.98,90,69,13.22,broken clouds
294,294,Yashkul,RU,46.1711,45.3435,62.62,69,99,16.49,overcast clouds
295,295,Tiarei,PF,-17.5333,-149.3333,82.42,79,22,12.97,light rain
296,296,Cancun,MX,21.1743,-86.8466,82.33,78,100,6.91,overcast clouds
297,297,Kuryk,KZ,43.2,51.65,64.33,37,21,10.63,few clouds
298,298,Belle Fourche,US,44.6714,-103.8522,77.34,23,0,3.83,clear sky
299,299,Zaozerne,UA,45.1582,33.2787,56.08,59,3,9.82,clear sky
300,300,Raudeberg,NO,61.9875,5.1352,44.96,35,81,26.84,broken clouds
301,301,Laguna,US,38.421,-121.4238,95.09,29,0,9.22,clear sky
302,302,Tual,ID,-5.6667,132.75,83.08,75,99,12.88,overcast clouds
303,303,Igarka,RU,67.4667,86.5833,36.23,98,100,8.93,light rain
304,304,Paraiso,CR,9.8383,-83.8656,70.41,96,99,1.86,overcast clouds
305,305,Ponta Do Sol,PT,32.6667,-17.1,73.0,71,49,5.86,scattered clouds
306,306,Charters Towers,AU,-20.1,146.2667,76.51,61,66,13.44,broken clouds
307,307,Cayenne,GF,4.9333,-52.3333,82.44,83,75,4.61,broken clouds
308,308,Catuday,PH,16.2923,119.8062,79.66,78,66,5.84,broken clouds
309,309,Atambua,ID,-9.1061,124.8925,78.62,70,96,1.52,overcast clouds
310,310,Noumea,NC,-22.2763,166.4572,80.01,99,100,11.25,overcast clouds
311,311,Vrangel,RU,42.7297,133.0839,45.05,88,91,19.3,overcast clouds
312,312,Mgandu,TZ,-5.95,34.1333,63.32,60,37,8.81,scattered clouds
313,313,Korla,CN,41.7597,86.1469,55.42,37,87,16.55,overcast clouds
314,314,Mount Isa,AU,-20.7333,139.5,74.97,23,5,4.61,clear sky
315,315,Olinda,BR,-8.0089,-34.8553,78.53,73,40,12.66,scattered clouds
316,316,Presidencia Roque Saenz Pena,AR,-26.7852,-60.4388,53.38,56,1,5.32,clear sky
317,317,Antalaha,MG,-14.9003,50.2788,65.88,88,48,7.05,scattered clouds
318,318,Mareeba,AU,-17.0,145.4333,79.48,72,10,6.62,clear sky
319,319,Ketchikan,US,55.3422,-131.6461,55.87,50,75,8.05,broken clouds
320,320,Juneau,US,58.3019,-134.4197,49.21,92,100,6.91,overcast clouds
321,321,Chifeng,CN,42.2683,118.9636,37.44,36,0,5.66,clear sky
322,322,Opuwo,,-18.0607,13.84,68.14,51,5,4.81,clear sky
323,323,Ostrovnoy,RU,68.0531,39.5131,39.56,92,56,11.3,broken clouds
324,324,Kumluca,TR,36.3703,30.2869,71.64,54,0,4.72,clear sky
325,325,Brockville,CA,44.5834,-75.6826,51.13,66,11,3.27,few clouds
326,326,Oriximina,BR,-1.7656,-55.8661,75.25,94,100,2.21,moderate rain
327,327,Tucuman,AR,-26.8241,-65.2226,71.6,20,0,5.75,clear sky
328,328,Carutapera,BR,-1.195,-46.02,78.89,79,31,8.59,scattered clouds
329,329,Caravelas,BR,-17.7125,-39.2481,75.34,81,36,7.92,scattered clouds
330,330,Quatre Cocos,MU,-20.2078,57.7625,71.71,73,64,12.53,broken clouds
331,331,Selfoss,IS,63.9331,-20.9971,35.04,66,92,7.54,light snow
332,332,Rach Gia,VN,10.0167,105.0833,76.21,88,100,6.26,moderate rain
333,333,Stabat,ID,3.761,98.4513,75.4,97,98,2.42,overcast clouds
334,334,Seoul,KR,37.5683,126.9778,47.64,76,20,4.61,few clouds
335,335,Smirnykh,RU,49.75,142.8333,47.53,95,100,12.73,overcast clouds
336,336,Kamaishi,JP,39.2667,141.8833,61.18,82,100,4.18,overcast clouds
337,337,Sitka,US,57.0531,-135.33,51.69,76,100,13.8,overcast clouds
338,338,Qandala,SO,11.472,49.8728,79.12,60,71,2.01,broken clouds
339,339,Waingapu,ID,-9.6567,120.2641,81.91,70,100,2.68,overcast clouds
340,340,Beringovskiy,RU,63.05,179.3167,32.65,56,28,9.22,scattered clouds
341,341,Tura,IN,25.5198,90.2201,71.26,96,94,4.03,overcast clouds
342,342,Kaohsiung,TW,22.6163,120.3133,74.03,81,40,2.3,scattered clouds
343,343,Pitimbu,BR,-7.4706,-34.8086,79.39,78,5,14.41,clear sky
344,344,Qasigiannguit,GL,68.8193,-51.1922,26.85,78,100,7.25,overcast clouds
345,345,San-Pedro,CI,4.7485,-6.6363,75.96,93,53,4.97,broken clouds
346,346,Tonj,SS,7.2737,28.6822,69.31,93,100,1.86,moderate rain
347,347,Northport,US,33.229,-87.5772,78.62,33,0,6.91,clear sky
348,348,Bosaso,SO,11.2842,49.1816,78.89,64,43,3.24,scattered clouds
349,349,Bairiki,KI,1.3292,172.9752,84.2,74,75,14.97,broken clouds
350,350,Poum,NC,-20.2333,164.0167,77.77,71,100,21.45,overcast clouds
351,351,Coquimbo,CL,-29.9533,-71.3436,58.73,67,20,12.66,few clouds
352,352,Mandalgovi,MN,45.7625,106.2708,32.72,27,45,1.95,scattered clouds
353,353,Shahrud,IR,36.4182,54.9763,60.1,24,0,2.17,clear sky
354,354,Ler,SS,8.3018,30.1418,69.55,94,8,3.76,clear sky
355,355,Turkan,AZ,40.3639,50.215,64.58,88,3,4.61,fog
356,356,Nortelandia,BR,-14.4547,-56.8028,79.02,66,96,4.54,overcast clouds
357,357,Conde,BR,-7.2597,-34.9075,78.26,78,20,10.36,few clouds
358,358,Zurrieq,MT,35.8311,14.4742,65.71,88,0,2.3,clear sky
359,359,Rocha,UY,-34.4833,-54.3333,44.67,83,31,6.38,scattered clouds
360,360,Goundam,ML,16.4145,-3.6708,92.97,13,6,8.08,clear sky
361,361,Alofi,NU,-19.0595,-169.9187,78.69,21,75,11.5,light intensity drizzle
362,362,Belem De Sao Francisco,BR,-8.7539,-38.9658,79.29,52,59,27.56,broken clouds
363,363,Sorong,ID,-0.8833,131.25,78.98,86,100,6.29,overcast clouds
364,364,Hovd,MN,48.0056,91.6419,36.61,55,81,4.09,broken clouds
365,365,Svetlogorsk,BY,52.6333,29.7333,40.12,86,6,3.09,clear sky
366,366,Mufulira,ZM,-12.5498,28.2407,63.25,36,22,4.52,few clouds
367,367,Hamilton,US,39.1834,-84.5333,72.43,44,0,8.05,clear sky
368,368,Luderitz,,-26.6481,15.1594,59.07,91,27,2.42,scattered clouds
369,369,Aras,ES,42.5617,-2.356,57.61,82,0,0.0,clear sky
370,370,Bartica,GY,6.4,-58.6167,82.72,89,71,3.89,broken clouds
371,371,Ust-Kuyga,RU,70.0167,135.6,7.43,98,97,8.77,overcast clouds
372,372,Byron Bay,AU,-28.65,153.6167,62.71,66,95,13.85,overcast clouds
373,373,Maumere,ID,-8.6199,122.2111,81.73,72,97,2.84,overcast clouds
374,374,Bahile,PH,9.9995,118.7878,76.87,81,67,2.35,broken clouds
375,375,Pisco,PE,-13.7,-76.2167,64.45,72,0,19.57,clear sky
376,376,Pontes E Lacerda,BR,-15.2261,-59.3353,75.58,77,68,4.63,broken clouds
377,377,Olovyannaya,RU,50.95,115.5667,37.85,42,99,2.57,overcast clouds
378,378,Ossora,RU,59.2353,163.0719,37.27,68,100,9.66,overcast clouds
379,379,Berlevag,NO,70.8578,29.0864,41.0,81,75,5.75,broken clouds
380,380,Longonjo,AO,-12.9067,15.2533,64.74,73,72,2.71,broken clouds
381,381,Mombris,DE,50.0667,9.1667,59.68,89,97,3.83,overcast clouds
382,382,Guamuchil,MX,25.4667,-108.1,99.68,30,0,6.87,clear sky
383,383,Stornoway,GB,58.2093,-6.3865,48.16,89,40,5.75,scattered clouds
384,384,Merauke,ID,-8.4667,140.3333,81.37,80,100,8.1,light rain
385,385,Romny,UA,50.751,33.4747,43.09,78,76,12.71,broken clouds
386,386,Sayyan,YE,15.1718,44.3244,55.53,39,22,6.02,few clouds
387,387,Zyryanka,RU,65.75,150.85,16.59,94,99,5.59,overcast clouds
388,388,Ust-Omchug,RU,61.15,149.6333,14.4,92,100,1.54,overcast clouds
389,389,Maningrida,AU,-12.0667,134.2667,84.31,56,50,8.03,scattered clouds
390,390,Zhicheng,CN,30.2956,111.5047,51.84,58,49,3.24,scattered clouds
391,391,Ginir,ET,7.1333,40.7,57.11,85,70,4.27,light rain
392,392,Bambous Virieux,MU,-20.3428,57.7575,71.85,83,40,8.05,scattered clouds
393,393,Bintulu,MY,3.1667,113.0333,75.61,94,40,3.44,scattered clouds
394,394,Dubbo,AU,-32.25,148.6167,57.33,77,100,16.11,overcast clouds
395,395,Sipe Sipe,BO,-17.45,-66.3833,73.89,54,8,8.12,clear sky
396,396,Port-Cartier,CA,50.0334,-66.8654,42.75,66,100,13.13,overcast clouds
397,397,Abu Kamal,SY,34.4506,40.9171,73.29,38,1,5.68,clear sky
398,398,Semporna,MY,4.4818,118.6112,79.47,84,100,4.88,moderate rain
399,399,Kuytun,RU,54.3419,101.5036,39.0,95,100,6.26,overcast clouds
400,400,Arrecife,ES,28.963,-13.5477,71.58,73,20,5.75,few clouds
401,401,Price,US,39.5994,-110.8107,74.12,21,0,5.75,clear sky
402,402,Puerto Del Rosario,ES,28.5004,-13.8627,71.35,78,20,10.36,few clouds
403,403,Mchinji,MW,-13.7984,32.8802,66.47,33,0,4.41,clear sky
404,404,Leshukonskoye,RU,64.8989,45.7622,41.07,91,99,9.26,overcast clouds
405,405,Soyo,AO,-6.1349,12.3689,76.33,85,6,5.86,clear sky
406,406,Tikrit,IQ,34.6071,43.6782,73.15,38,5,8.72,clear sky
407,407,Ouadda,CF,8.0777,22.4007,67.35,95,100,1.19,light rain
408,408,Ambon,ID,-3.6954,128.1814,75.34,100,20,8.05,few clouds
409,409,West Bay,KY,19.3667,-81.4167,86.07,82,20,6.91,few clouds
410,410,Nantucket,US,41.2835,-70.0995,62.71,73,100,11.5,overcast clouds
411,411,Faya,SA,18.3851,42.4509,61.32,30,5,4.92,clear sky
412,412,Benjamin Constant,BR,-4.3831,-70.0311,89.73,62,0,3.44,clear sky
413,413,Mbanza-Ngungu,CD,-5.25,14.8667,72.27,79,46,2.48,light rain
414,414,Tuatapere,NZ,-46.1333,167.6833,50.09,70,97,11.7,overcast clouds
415,415,Novobiryusinskiy,RU,56.9578,97.7076,41.97,87,99,10.47,overcast clouds
416,416,Ulladulla,AU,-35.35,150.4667,58.48,63,52,4.52,light rain
417,417,Tarakan,ID,3.3,117.6333,77.83,85,100,7.27,overcast clouds
418,418,Atbasar,KZ,51.8,68.3333,43.63,66,25,8.37,scattered clouds
419,419,Karema,TZ,-6.8205,30.4389,77.34,45,80,3.69,broken clouds
420,420,Mitsamiouli,KM,-11.3847,43.2844,75.07,75,4,6.69,clear sky
421,421,San Vicente,AR,-26.6167,-54.1333,56.19,100,100,0.34,overcast clouds
422,422,Aksu,CN,41.1231,80.2644,52.12,48,1,8.99,clear sky
423,423,Gold Coast,AU,-28.0,153.4333,72.9,74,40,10.36,scattered clouds
424,424,Huaiyin,CN,33.5886,119.0192,46.92,48,2,4.0,clear sky
425,425,Port Lincoln,AU,-34.7333,135.8667,64.09,60,97,18.07,overcast clouds
426,426,Morahalom,HU,46.2181,19.8851,55.42,69,77,5.5,broken clouds
427,427,Chemal,RU,51.4111,86.005,35.8,94,41,3.65,scattered clouds
428,428,Jan Kempdorp,ZA,-27.9225,24.8305,71.53,28,100,9.78,overcast clouds
429,429,Cap Malheureux,MU,-19.9842,57.6142,68.47,75,25,3.0,scattered clouds
430,430,El Sauzal,MX,31.9,-116.6833,68.41,82,37,7.99,scattered clouds
431,431,Kloulklubed,PW,7.0419,134.2556,82.9,69,100,12.03,overcast clouds
432,432,Paramonga,PE,-10.6667,-77.8333,63.54,82,18,9.26,few clouds
433,433,Ornskoldsvik,SE,63.2909,18.7153,49.15,93,100,17.27,overcast clouds
434,434,Wadi Maliz,TN,36.4681,8.5495,74.86,61,100,2.68,light rain
435,435,Puerto Baquerizo Moreno,EC,-0.9,-89.6,68.99,83,75,14.97,broken clouds
436,436,Camacha,PT,33.0833,-16.3333,67.42,83,40,11.5,scattered clouds
437,437,Ouegoa,NC,-20.35,164.4333,79.93,64,98,14.88,overcast clouds
438,438,Shihezi,CN,44.3,86.0333,49.6,64,100,4.18,overcast clouds
439,439,Srivardhan,IN,18.0333,73.0167,76.77,89,100,2.89,overcast clouds
440,440,Cabanas,CU,22.9758,-82.9219,80.01,84,89,12.46,overcast clouds
441,441,Puerto Colombia,CO,10.9878,-74.9547,84.29,75,19,8.93,few clouds
442,442,Manggar,ID,-2.8833,108.2667,75.81,93,100,5.95,moderate rain
443,443,Belen,TR,36.4891,36.2233,53.74,82,0,4.61,clear sky
444,444,Benton Harbor,US,42.1167,-86.4542,68.32,51,0,3.44,clear sky
445,445,Tumsar,IN,21.3833,79.7333,72.88,97,100,2.93,overcast clouds
446,446,Skjervoy,NO,70.0311,20.9714,48.2,82,100,13.56,overcast clouds
447,447,Kingaroy,AU,-26.5333,151.8333,64.33,55,64,13.94,broken clouds
448,448,Eirunepe,BR,-6.6603,-69.8736,73.85,91,40,1.21,scattered clouds
449,449,Belgrade,RS,44.804,20.4651,57.33,76,0,5.75,clear sky
450,450,Shaunavon,CA,49.6501,-108.4181,71.38,25,2,16.6,clear sky
451,451,Fukue,JP,32.6881,128.8419,64.44,62,100,21.25,overcast clouds
452,452,Porto Novo,BJ,6.4965,2.6036,80.42,86,82,3.6,broken clouds
453,453,Nome,US,64.5011,-165.4064,32.16,80,100,3.44,overcast clouds
454,454,Nioro,GM,13.35,-15.75,77.52,86,91,2.68,overcast clouds
455,455,Gurun,MY,5.8172,100.4738,78.73,92,66,1.97,broken clouds
456,456,Damaturu,NG,11.747,11.9608,81.68,39,9,5.66,clear sky
457,457,Kavieng,PG,-2.5744,150.7967,83.59,64,35,7.49,scattered clouds
458,458,Hornepayne,CA,49.2138,-84.7705,41.25,68,76,10.54,broken clouds
459,459,Margate,GB,51.3813,1.3862,54.7,67,5,1.99,clear sky
460,460,Goderich,CA,43.7501,-81.7165,53.91,62,28,5.75,scattered clouds
461,461,Marsh Harbour,BS,26.5412,-77.0636,82.44,73,9,10.31,light rain
462,462,Pierre,US,44.3683,-100.351,79.72,30,0,8.05,clear sky
463,463,Luzhou,CN,28.8724,105.4405,58.39,86,100,0.4,overcast clouds
464,464,Phon,TH,15.816,102.5998,67.62,84,98,7.56,overcast clouds
465,465,Hukuntsi,BW,-24.0,21.75,72.34,15,38,12.48,scattered clouds
466,466,Lola,GN,7.8,-8.5333,70.14,91,9,2.48,clear sky
467,467,Mailsi,PK,29.8003,72.1758,73.29,78,0,5.44,clear sky
468,468,Mana,GF,5.6592,-53.7767,78.4,92,38,9.24,moderate rain
469,469,Sisimiut,GL,66.9395,-53.6735,32.02,77,100,7.05,overcast clouds
470,470,Samarai,PG,-10.6167,150.6667,82.06,76,32,10.58,scattered clouds
471,471,Pacifica,US,37.6138,-122.4869,86.41,77,20,10.36,few clouds
472,472,Atar,MR,20.5169,-13.0499,92.46,23,64,4.7,broken clouds
473,473,Magistralnyy,RU,56.1725,107.4458,34.7,92,100,1.99,light snow
474,474,Bubaque,GW,11.2833,-15.8333,81.73,73,34,4.21,scattered clouds
475,475,Teguldet,RU,57.3064,88.1667,43.9,82,100,13.38,overcast clouds
476,476,Domoni,KM,-12.2569,44.5319,73.81,81,1,5.93,clear sky
477,477,Evensk,RU,61.95,159.2333,25.83,68,80,4.16,broken clouds
478,478,Ha Tinh,VN,18.3333,105.9,68.67,78,97,5.95,overcast clouds
479,479,Ucluelet,CA,48.9329,-125.5528,61.09,83,100,4.0,overcast clouds
480,480,Port Augusta,AU,-32.5,137.7667,71.44,23,100,15.95,overcast clouds
481,481,Orlik,RU,52.5178,99.825,33.35,90,100,3.4,overcast clouds
482,482,Ardakan,IR,32.31,54.0175,69.87,13,0,5.86,clear sky
483,483,Shingu,JP,33.7333,135.9833,63.14,59,96,6.35,overcast clouds
484,484,Codrington,AU,-38.2667,141.9667,59.74,69,93,13.62,overcast clouds
485,485,Shahr-E Babak,IR,30.1165,55.1186,59.32,16,0,3.8,clear sky
486,486,Lasa,IT,46.6166,10.7002,56.28,82,81,3.06,broken clouds
487,487,Limulunga,ZM,-15.0969,23.1376,74.26,23,2,10.58,clear sky
488,488,Aksarka,RU,66.5606,67.7975,39.25,89,100,18.05,overcast clouds
489,489,Tessalit,ML,20.1986,1.0114,85.35,17,51,11.34,broken clouds
490,490,Bukachacha,RU,52.9833,116.9167,32.81,64,20,2.48,few clouds
491,491,Amravati,IN,20.9333,77.75,72.12,96,100,2.91,overcast clouds
492,492,Eganville,CA,45.5334,-77.0994,42.42,58,63,1.54,broken clouds
493,493,San Quintin,MX,30.4833,-115.95,71.26,75,14,11.92,few clouds
494,494,Ridgecrest,US,35.6225,-117.6709,89.46,18,0,3.44,clear sky
495,495,Gisborne,NZ,-38.6533,178.0042,65.28,47,48,8.28,scattered clouds
496,496,Comodoro Rivadavia,AR,-45.8667,-67.5,66.06,24,0,16.11,clear sky
497,497,Puerto Carreno,CO,6.189,-67.4859,82.38,78,75,2.3,broken clouds
498,498,Hammerfest,NO,70.6634,23.6821,45.05,81,0,2.3,clear sky
499,499,Bandarbeyla,SO,9.4942,50.8122,76.95,89,64,14.7,broken clouds
500,500,Lakes Entrance,AU,-37.8811,147.981,56.59,55,99,4.32,overcast clouds
501,501,Rairangpur,IN,22.2676,86.1751,73.26,94,61,4.56,broken clouds
502,502,Tevriz,RU,57.509,72.4042,48.76,78,100,10.02,overcast clouds
503,503,Vinh,VN,18.6667,105.6667,69.03,75,96,5.26,overcast clouds
504,504,Biak,ID,-0.9131,122.8766,76.37,82,100,2.26,overcast clouds
505,505,Baykit,RU,61.67,96.37,40.17,98,100,4.76,overcast clouds
506,506,Imeni Poliny Osipenko,RU,52.4201,136.4853,34.56,67,100,12.84,overcast clouds
507,507,La Macarena,CO,2.1837,-73.7849,77.11,82,86,2.98,overcast clouds
508,508,Andenes,NO,69.3143,16.1194,46.92,87,40,11.5,scattered clouds
509,509,Fort Payne,US,34.4442,-85.7197,71.31,47,1,4.83,clear sky
510,510,Yerbogachen,RU,61.2767,108.0108,33.01,96,100,5.37,overcast clouds
511,511,Aykhal,RU,66.0,111.5,24.46,98,94,7.07,overcast clouds
512,512,Alihe,CN,50.5667,123.7167,32.76,61,2,3.27,clear sky
513,513,Cockburn Town,TC,21.4612,-71.1419,80.56,78,40,12.66,scattered clouds
514,514,Tsnori,GE,41.6209,45.9694,60.87,63,32,6.78,scattered clouds
515,515,Lorengau,PG,-2.0226,147.2712,83.44,61,60,7.56,broken clouds
516,516,Itarema,BR,-2.9248,-39.9167,78.57,80,35,13.67,scattered clouds
517,517,Pinheiro Machado,BR,-31.5783,-53.3811,49.05,81,96,9.44,overcast clouds
518,518,Lakhi,PK,27.8496,68.6994,73.29,83,0,0.0,haze
519,519,Wajima,JP,37.4,136.9,64.0,59,76,29.93,broken clouds
520,520,Nyurba,RU,63.2842,118.3319,25.11,97,100,2.95,overcast clouds
521,521,Turinsk,RU,58.0458,63.696,46.06,83,100,7.52,overcast clouds
522,522,Vredendal,ZA,-31.6683,18.5012,61.81,79,93,6.85,overcast clouds
523,523,Tibagi,BR,-24.5094,-50.4136,63.57,92,100,7.56,light rain
524,524,Marathon,US,44.9,-89.7668,63.64,54,0,9.22,clear sky
525,525,Taoudenni,ML,22.6783,-3.9836,91.26,20,24,9.78,few clouds
526,526,Slonim,BY,53.0867,25.3219,41.41,86,34,7.74,scattered clouds
527,527,Bucerias,MX,20.75,-105.3333,89.98,71,8,3.15,clear sky
528,528,Necochea,AR,-38.5473,-58.7368,52.2,58,18,18.68,few clouds
529,529,Lesosibirsk,RU,58.2358,92.4828,42.93,84,100,10.83,overcast clouds
530,530,Yinchuan,CN,38.4681,106.2731,45.63,18,1,4.7,clear sky
531,531,Nanortalik,GL,60.1432,-45.2371,37.65,91,99,4.99,light rain
532,532,Quezon,PH,7.7303,125.0989,74.28,96,99,0.63,overcast clouds
533,533,Alice Springs,AU,-23.7,133.8833,72.95,15,94,10.36,overcast clouds
534,534,Ljungby,SE,56.8332,13.9408,50.41,86,100,13.73,overcast clouds
535,535,Santa Maria,BR,-29.6842,-53.8069,52.9,100,100,8.05,overcast clouds
536,536,Develi,TR,38.3906,35.4922,42.15,74,2,0.94,clear sky
537,537,Krasnoselkup,RU,65.7,82.4667,37.53,97,100,12.71,light rain
538,538,Almeirim,BR,-1.5233,-52.5817,82.67,63,61,6.73,heavy intensity rain
539,539,Panzhihua,CN,26.5851,101.7128,58.44,90,100,0.83,overcast clouds
540,540,Bauchi,NG,10.5,10.0,73.87,72,38,3.51,scattered clouds
541,541,Piacabucu,BR,-10.4056,-36.4344,77.38,78,96,10.16,overcast clouds
542,542,Sobolevo,RU,54.4299,31.8996,38.88,88,0,3.27,clear sky
543,543,Kyra,RU,49.5776,111.9753,32.38,55,96,3.62,overcast clouds
544,544,Mayumba,GA,-3.432,10.6554,76.17,91,75,4.54,broken clouds
545,545,Usinsk,RU,65.9939,57.5281,39.36,80,100,22.03,overcast clouds
546,546,Jiazi,CN,22.8779,116.067,66.96,58,49,13.8,scattered clouds
547,547,Yar-Sale,RU,66.8333,70.8333,38.64,90,94,15.21,overcast clouds
548,548,Chiang Khong,TH,20.2613,100.4046,65.03,97,69,2.26,broken clouds
549,549,Svetlaya,RU,46.5389,138.3297,51.75,80,14,12.93,few clouds
550,550,North Bend,US,43.4065,-124.2243,65.91,91,75,18.41,broken clouds
551,551,Malasin,PH,16.3045,121.1062,72.14,97,86,1.99,overcast clouds
552,552,Wixom,US,42.5248,-83.5363,64.4,58,20,3.44,few clouds
553,553,Zalantun,CN,48.0,122.7167,35.65,45,9,6.69,clear sky
554,554,Khorinsk,RU,52.1657,109.7726,29.91,64,91,1.39,overcast clouds
555,555,Marienburg,PL,54.0359,19.0266,52.88,55,100,13.2,overcast clouds
556,556,Phichit,TH,16.25,100.4167,71.55,97,74,2.98,broken clouds
557,557,Arecibo,PR,18.4724,-66.7157,81.97,77,19,10.36,few clouds
558,558,Shelburne,CA,44.0787,-80.2041,52.56,65,16,5.08,few clouds
559,559,Paracuru,BR,-3.41,-39.0306,80.11,80,14,11.79,few clouds
560,560,Oeiras,BR,-7.0253,-42.1311,88.99,23,77,4.99,broken clouds
561,561,Lompoc,US,34.6391,-120.4579,81.01,79,75,11.5,broken clouds
562,562,Raga,SS,8.4596,25.678,69.6,95,54,1.14,broken clouds
563,563,Upington,ZA,-28.4478,21.2561,80.98,11,100,9.22,overcast clouds
564,564,Saryozek,KZ,44.3583,77.9753,32.86,63,0,3.58,clear sky
565,565,Hambantota,LK,6.1241,81.1185,77.83,85,100,12.17,overcast clouds
566,566,Kirakira,SB,-10.4544,161.9205,83.41,70,29,4.68,scattered clouds
567,567,Vyyezdnoye,RU,55.3815,43.7864,49.05,90,100,5.01,overcast clouds
568,568,Bud,US,39.447,-86.1758,71.67,44,4,6.49,clear sky
569,569,Whitehorse,CA,60.7161,-135.0538,46.09,57,75,4.61,broken clouds
570,570,Lac Du Bonnet,CA,50.2536,-96.0612,61.39,42,0,10.49,clear sky
571,571,Fort Nelson,CA,58.8053,-122.7002,54.99,28,75,14.97,broken clouds
572,572,Sungaipenuh,ID,-2.0833,101.3833,64.71,93,100,1.5,overcast clouds
573,573,Kisangani,CD,0.5167,25.2,68.85,98,72,0.51,light rain
574,574,Batticaloa,LK,7.7102,81.6924,77.65,86,75,5.26,broken clouds
575,575,Danielskuil,ZA,-28.1887,23.5395,70.12,18,100,10.69,overcast clouds
576,576,Virtsu,EE,58.5716,23.5115,52.99,72,25,25.81,scattered clouds
577,577,Novita,CO,4.9551,-76.6053,75.04,98,98,1.9,overcast clouds
578,578,Littleton,US,39.6133,-105.0166,77.22,20,20,3.0,few clouds
579,579,Daru,PG,-9.0763,143.2092,81.57,82,100,10.27,overcast clouds
580,580,Padilla,CO,3.2204,-76.3139,83.77,86,93,3.2,overcast clouds
581,581,Baruun-Urt,MN,46.6806,113.2792,31.03,33,54,9.04,broken clouds
582,582,Boa Vista,BR,2.8197,-60.6733,80.58,74,40,2.3,scattered clouds
583,583,Chalons-En-Champagne,FR,48.9539,4.3672,58.33,94,99,9.89,overcast clouds
584,584,Adrar,MR,20.5022,-10.0711,90.19,22,19,9.55,few clouds
585,585,Marovoay,MG,-16.1,46.6333,70.05,75,0,3.53,clear sky
586,586,Paita,PE,-5.0892,-81.1144,65.59,81,38,17.69,scattered clouds
